Latitude,Longitude,Stop Name,Stop Status
40.685932,-73.972561,GREENE AV/FULTON ST,at stop
40.700124,-73.911617,GATES AV/WYCKOFF AV,at stop
40.686764,-73.965349,GREENE AV/WASHINGTON AV,approaching
40.698318,-73.91315,PALMETTO ST/IRVING AV,approaching
40.696188,-73.991022,ADAMS ST/BKLYN SUPREME CRT,< 1 stop away
